City_ID,City,Lat,Lng,Max Temp,Humidity,Cloudiness,Wind Speed,Country,Date
0,Garowe,8.4054,48.4845,73.67,74,35,21.88,SO,2021-05-26 01:48:53
1,Kodiak,57.79,-152.4072,60.31,39,1,5.75,US,2021-05-26 01:48:53
2,East London,-33.0153,27.9116,63.64,88,54,10.71,ZA,2021-05-26 01:48:53
3,Mar Del Plata,-38.0023,-57.5575,47.23,68,0,8.01,AR,2021-05-26 01:45:00
4,Isangel,-19.55,169.2667,78.91,61,75,11.7,VU,2021-05-26 01:48:54
5,Berdigestyakh,62.0989,126.6992,60.89,29,64,6.31,RU,2021-05-26 01:48:54
6,Butaritari,3.0707,172.7902,82.2,78,100,19.17,KI,2021-05-26 01:48:54
7,Santiago,-33.4569,-70.6483,61.18,44,0,1.99,CL,2021-05-26 01:45:29
8,New Norfolk,-42.7826,147.0587,56.7,57,100,5.01,AU,2021-05-26 01:44:58
9,Atuona,-9.8,-139.0333,79.95,63,56,12.88,PF,2021-05-26 01:48:55
10,Rikitea,-23.1203,-134.9692,77.68,79,56,16.6,PF,2021-05-26 01:48:55
11,Punta Arenas,-53.15,-70.9167,35.71,75,20,11.45,CL,2021-05-26 01:46:09
12,Puerto Ayora,-0.7393,-90.3518,74.55,91,13,5.01,EC,2021-05-26 01:48:56
13,Constitucion,-35.3333,-72.4167,54.48,81,11,7.18,CL,2021-05-26 01:44:59
14,Ribeira Grande,38.5167,-28.7,64.29,94,100,16.51,PT,2021-05-26 01:48:56
15,Sehithwa,-20.4667,22.7167,52.11,58,49,3.31,BW,2021-05-26 01:48:56
16,Wakkanai,45.4094,141.6739,57.18,67,20,12.66,JP,2021-05-26 01:48:57
17,Alofi,-19.0595,-169.9187,76.89,83,75,16.11,NU,2021-05-26 01:48:57
18,Mataura,-46.1927,168.8643,49.48,45,94,1.63,NZ,2021-05-26 01:45:05
19,Kloulklubed,7.0419,134.2556,86.5,72,100,4.29,PW,2021-05-26 01:48:57
20,Ushuaia,-54.8,-68.3,31.66,86,75,17.27,AR,2021-05-26 01:48:58
21,Hilo,19.7297,-155.09,80.33,78,90,13.8,US,2021-05-26 01:48:58
22,Bredasdorp,-34.5322,20.0403,54.72,71,79,5.35,ZA,2021-05-26 01:46:31
23,Albany,42.6001,-73.9662,74.05,69,100,1.01,US,2021-05-26 01:48:59
24,Burns Lake,54.2331,-125.7533,54.82,39,72,11.83,CA,2021-05-26 01:48:59
25,Cabo San Lucas,22.8909,-109.9124,88.52,30,20,11.5,MX,2021-05-26 01:48:49
26,Goderich,43.7501,-81.7165,75.52,50,100,19.57,CA,2021-05-26 01:48:59
27,Nome,64.5011,-165.4064,68.11,30,1,8.05,US,2021-05-26 01:47:11
28,Acarau,-2.8856,-40.12,77.31,81,71,11.07,BR,2021-05-26 01:49:00
29,Serro,-18.6047,-43.3794,63.63,99,96,1.95,BR,2021-05-26 01:49:00
30,Hithadhoo,-0.6,73.0833,83.8,66,100,21.56,MV,2021-05-26 01:47:19
31,Pacific Grove,36.6177,-121.9166,70.2,78,40,11.01,US,2021-05-26 01:44:16
32,La Ronge,55.1001,-105.2842,44.85,33,20,12.66,CA,2021-05-26 01:49:01
33,Chake Chake,-5.2459,39.7666,76.98,71,99,12.68,TZ,2021-05-26 01:49:01
34,Sisophon,13.5859,102.9737,82.49,79,100,4.7,KH,2021-05-26 01:49:01
35,Nikolskoye,59.7035,30.7861,48.09,88,92,7.29,RU,2021-05-26 01:49:02
36,Port Alfred,-33.5906,26.891,62.28,89,45,11.68,ZA,2021-05-26 01:47:16
37,Castro,-24.7911,-50.0119,49.69,52,29,1.32,BR,2021-05-26 01:49:02
38,Hobart,-42.8794,147.3294,57.06,61,40,1.99,AU,2021-05-26 01:46:19
39,Busselton,-33.65,115.3333,57.04,64,89,13.18,AU,2021-05-26 01:49:02
40,Padang,-0.9492,100.3543,82.45,70,89,1.32,ID,2021-05-26 01:49:03
41,Portland,45.5234,-122.6762,62.64,80,75,1.01,US,2021-05-26 01:46:15
42,Bluff,-46.6,168.3333,49.8,48,66,2.06,NZ,2021-05-26 01:46:38
43,Yellowknife,62.456,-114.3525,48.29,31,20,1.01,CA,2021-05-26 01:44:58
44,Namibe,-15.1961,12.1522,74.55,63,0,4.56,AO,2021-05-26 01:49:04
45,Cape Town,-33.9258,18.4232,61.88,77,75,1.99,ZA,2021-05-26 01:44:15
46,Bayan,46.0833,127.4,65.68,23,4,8.12,CN,2021-05-26 01:49:04
47,Kashi,39.4547,75.9797,69.01,19,40,2.1,CN,2021-05-26 01:49:04
48,Verkhnevilyuysk,63.4453,120.3167,55.49,56,100,4.74,RU,2021-05-26 01:49:05
49,Omboue,-1.5746,9.2618,77.23,94,86,6.04,GA,2021-05-26 01:49:05
50,Saint-Philippe,-21.3585,55.7679,72.95,85,44,8.16,RE,2021-05-26 01:49:05
51,Saldanha,-33.0117,17.9442,56.52,83,34,1.39,ZA,2021-05-26 01:44:59
52,North Bend,43.4065,-124.2243,59.23,85,90,10.36,US,2021-05-26 01:49:06
53,Kapaa,22.0752,-159.319,84.18,68,75,1.01,US,2021-05-26 01:46:41
54,Pevek,69.7008,170.3133,33.4,84,100,3.51,RU,2021-05-26 01:49:06
55,Springfield,37.2153,-93.2982,69.53,95,20,5.01,US,2021-05-26 01:47:48
56,Mayo,38.8876,-76.5119,74.12,89,1,5.01,US,2021-05-26 01:49:07
57,Kiato,38.0167,22.75,73.94,63,0,1.54,GR,2021-05-26 01:49:07
58,Labuhan,-6.8844,112.2051,84.94,69,31,10.4,ID,2021-05-26 01:49:07
59,Longyearbyen,78.2186,15.6401,28.24,80,75,14.97,SJ,2021-05-26 01:49:08
60,Kanye,-24.9667,25.3327,48.6,55,100,1.23,BW,2021-05-26 01:49:08
61,Jamestown,42.097,-79.2353,77.07,73,1,5.75,US,2021-05-26 01:45:00
62,Yermish,54.7678,42.2711,50.4,79,100,2.89,RU,2021-05-26 01:49:08
63,Honningsvag,70.9821,25.9704,37.02,70,96,4.34,NO,2021-05-26 01:49:09
64,Vardo,70.3705,31.1107,36.86,71,30,8.79,NO,2021-05-26 01:49:09
65,Mitsamiouli,-11.3847,43.2844,77.81,70,9,9.33,KM,2021-05-26 01:49:09
66,Khatanga,71.9667,102.5,31.91,100,100,5.88,RU,2021-05-26 01:49:10
67,Bambous Virieux,-20.3428,57.7575,70.21,94,40,8.5,MU,2021-05-26 01:45:11
68,Torbay,47.6666,-52.7314,46.58,81,90,20.71,CA,2021-05-26 01:45:24
69,Zemio,5.0314,25.1361,68.86,92,30,2.3,CF,2021-05-26 01:49:11
70,Port Elizabeth,-33.918,25.5701,59.29,88,0,8.05,ZA,2021-05-26 01:49:11
71,Bata,1.8639,9.7658,78.35,90,90,3.87,GQ,2021-05-26 01:49:11
72,Saint-Raphael,19.4333,-72.2,72.05,95,58,3.78,HT,2021-05-26 01:49:11
73,Guerrero Negro,27.9769,-114.0611,63.88,78,100,15.28,MX,2021-05-26 01:47:30
74,Makakilo City,21.3469,-158.0858,81.68,65,75,10.36,US,2021-05-26 01:46:30
75,Carnarvon,-24.8667,113.6333,62.67,45,100,13.8,AU,2021-05-26 01:46:27
76,Namtsy,62.7161,129.6658,60.91,38,99,2.48,RU,2021-05-26 01:49:12
77,Ekibastuz,51.6667,75.3667,84.22,25,2,9.37,KZ,2021-05-26 01:49:12
78,Mendoza,-32.8908,-68.8272,53.13,54,0,4.61,AR,2021-05-26 01:44:35
79,Dikson,73.5069,80.5464,23.9,92,39,8.75,RU,2021-05-26 01:45:01
80,Norman Wells,65.282,-126.8329,62.64,22,20,11.5,CA,2021-05-26 01:49:13
81,Vaini,-21.2,-175.2,73.56,88,90,9.22,TO,2021-05-26 01:49:13
82,Georgetown,5.4112,100.3354,84.88,82,20,3.0,MY,2021-05-26 01:45:09
83,Quatre Cocos,-20.2078,57.7625,70.09,77,8,8.41,MU,2021-05-26 01:48:53
84,Kimbe,-5.5502,150.1429,80.89,82,100,5.57,PG,2021-05-26 01:49:14
85,Saint George,37.1041,-113.5841,90.07,9,1,1.01,US,2021-05-26 01:49:14
86,Changli,39.7042,119.1506,72.95,31,98,7.81,CN,2021-05-26 01:49:14
87,Beringovskiy,63.05,179.3167,32.54,98,100,6.4,RU,2021-05-26 01:47:08
88,Thompson,55.7435,-97.8558,28.56,69,90,14.97,CA,2021-05-26 01:47:20
89,Chara,56.9064,118.2631,47.82,58,90,3.13,RU,2021-05-26 01:49:15
90,Chipoka,-13.9933,34.5157,61.83,67,0,7.07,MW,2021-05-26 01:49:15
91,Mahebourg,-20.4081,57.7,70.25,94,40,3.44,MU,2021-05-26 01:49:16
92,Qaanaaq,77.484,-69.3632,29.34,72,12,6.31,GL,2021-05-26 01:49:16
93,Saskylakh,71.9167,114.0833,52.77,68,99,10.63,RU,2021-05-26 01:44:52
94,Machaneng,-23.1862,27.4886,54.21,57,100,0.83,BW,2021-05-26 01:49:17
95,Port Blair,11.6667,92.75,84.24,84,90,10.36,IN,2021-05-26 01:49:17
96,Huanren,41.2647,125.3667,58.46,55,100,4.03,CN,2021-05-26 01:49:17
97,Anadyr,64.75,177.4833,48.7,53,20,24.0,RU,2021-05-26 01:49:18
98,Atar,20.5169,-13.0499,82.78,20,6,8.61,MR,2021-05-26 01:49:18
99,Guadix,37.2993,-3.1392,57.13,61,64,3.51,ES,2021-05-26 01:49:18
100,Berbera,10.4396,45.0143,86.38,65,84,6.76,SO,2021-05-26 01:49:19
101,Sobolevo,54.4299,31.8996,54.54,79,99,8.12,RU,2021-05-26 01:49:19
102,Kinkala,-4.3614,14.7644,75.51,78,65,3.0,CG,2021-05-26 01:49:19
103,Ulladulla,-35.35,150.4667,67.87,43,0,9.78,AU,2021-05-26 01:49:20
104,Naze,28.3667,129.4833,65.32,67,100,4.85,JP,2021-05-26 01:49:20
105,Nyurba,63.2842,118.3319,56.66,46,100,5.06,RU,2021-05-26 01:49:20
106,Coffs Harbour,-30.3,153.1333,68.27,80,90,8.05,AU,2021-05-26 01:49:21
107,Avarua,-21.2078,-159.775,82.45,78,40,8.05,CK,2021-05-26 01:49:21
108,Carndonagh,55.25,-7.2667,46.27,95,93,4.68,IE,2021-05-26 01:49:21
109,Iranshahr,27.2025,60.6848,88.41,20,0,1.59,IR,2021-05-26 01:49:22
110,Karasjok,69.4719,25.5112,35.71,84,94,2.84,NO,2021-05-26 01:49:22
111,Port-Gentil,-0.7193,8.7815,79.84,87,100,12.84,GA,2021-05-26 01:49:22
112,Faanui,-16.4833,-151.75,81.18,69,11,10.11,PF,2021-05-26 01:49:22
113,Havre-Saint-Pierre,50.2334,-63.5986,45.19,93,75,5.75,CA,2021-05-26 01:49:01
114,Kuminskiy,58.6667,66.5667,54.99,93,97,7.16,RU,2021-05-26 01:49:23
115,Kruisfontein,-34.0033,24.7314,54.88,91,89,5.06,ZA,2021-05-26 01:49:23
116,Amnat Charoen,15.9167,104.75,84.69,67,99,7.56,TH,2021-05-26 01:49:24
117,Kholbon,51.8833,116.25,53.67,50,21,5.08,RU,2021-05-26 01:49:24
118,Rezekne,56.5,27.3167,54.05,97,100,11.32,LV,2021-05-26 01:49:24
119,Panguna,-6.3164,155.4848,74.68,93,100,3.49,PG,2021-05-26 01:49:25
120,Oxford,51.7522,-1.256,45.64,92,20,5.61,GB,2021-05-26 01:48:08
121,Esperance,-33.8667,121.9,57.04,66,16,9.57,AU,2021-05-26 01:49:25
122,Seoul,37.5683,126.9778,67.57,52,0,8.43,KR,2021-05-26 01:48:37
123,Arraial Do Cabo,-22.9661,-42.0278,68.74,62,59,4.97,BR,2021-05-26 01:48:36
124,Kaitangata,-46.2817,169.8464,46.92,62,99,4.27,NZ,2021-05-26 01:49:26
125,Cherskiy,68.75,161.3,63.3,33,16,15.37,RU,2021-05-26 01:49:26
126,Dingle,10.9995,122.6711,85.37,70,100,4.36,PH,2021-05-26 01:49:26
127,Sungairaya,0.7,108.9,85.66,71,98,2.39,ID,2021-05-26 01:49:26
128,Drumnadrochit,57.3344,-4.4799,47.89,89,97,2.17,GB,2021-05-26 01:49:27
129,Ochakiv,46.6128,31.5498,55.54,84,7,4.72,UA,2021-05-26 01:49:27
130,Honiara,-9.4333,159.95,84.58,69,100,1.66,SB,2021-05-26 01:49:19
131,Geraldton,-28.7667,114.6,61.21,48,100,19.06,AU,2021-05-26 01:49:28
132,Veracruz,19.3333,-96.6667,77.86,81,85,1.34,MX,2021-05-26 01:49:28
133,Kyshtovka,56.555,76.6271,67.84,62,24,6.26,RU,2021-05-26 01:49:28
134,Altamont,42.2068,-121.7372,60.78,43,20,5.01,US,2021-05-26 01:49:29
135,Muyezerskiy,63.9333,31.65,37.89,93,100,5.75,RU,2021-05-26 01:49:29
136,Bloomingdale,27.8936,-82.2404,80.74,73,1,3.89,US,2021-05-26 01:49:30
137,Da Nang,16.0678,108.2208,89.58,62,20,2.3,VN,2021-05-26 01:49:30
138,Sovetskiy,61.3614,63.5842,55.74,70,100,3.74,RU,2021-05-26 01:44:59
139,Broome,42.2506,-75.833,71.1,81,100,5.01,US,2021-05-26 01:49:30
140,Sur,22.5667,59.5289,90.57,41,0,8.57,OM,2021-05-26 01:49:31
141,Zhanaozen,43.3,52.8,70.07,70,15,16.93,KZ,2021-05-26 01:49:31
142,Saint-Francois,46.4154,3.9054,49.44,76,0,4.61,FR,2021-05-26 01:49:31
143,Clyde River,70.4692,-68.5914,26.83,93,100,24.16,CA,2021-05-26 01:45:07
144,Vestmannaeyjar,63.4427,-20.2734,44.65,88,71,25.99,IS,2021-05-26 01:49:32
145,Sinjar,36.3209,41.8754,70.18,41,0,3.96,IQ,2021-05-26 01:49:32
146,Sistranda,63.7256,8.834,53.91,87,46,20.83,NO,2021-05-26 01:49:32
147,Tuatapere,-46.1333,167.6833,49.82,55,95,1.43,NZ,2021-05-26 01:44:45
148,Yuncheng,35.0231,110.9928,80.37,38,8,17.34,CN,2021-05-26 01:49:33
149,Kulhudhuffushi,6.6221,73.07,82.74,74,100,28.68,MV,2021-05-26 01:49:33
150,Victor Harbor,-35.5667,138.6167,60.91,66,40,1.99,AU,2021-05-26 01:49:33
151,Sibolga,1.7427,98.7792,84.38,71,80,1.14,ID,2021-05-26 01:47:52
152,Vila Do Maio,15.1333,-23.2167,72.39,81,0,16.06,CV,2021-05-26 01:47:56
153,Hobyo,5.3505,48.5268,78.39,80,77,19.71,SO,2021-05-26 01:49:34
154,Solnechnyy,50.7214,136.6319,37.89,86,100,6.55,RU,2021-05-26 01:49:35
155,Kodinsk,58.6881,99.1844,42.57,41,96,10.71,RU,2021-05-26 01:49:35
156,Tazovskiy,67.4667,78.7,29.53,64,38,2.93,RU,2021-05-26 01:49:35
157,Salisbury,51.0693,-1.7957,46.47,94,6,8.05,GB,2021-05-26 01:49:36
158,Bereda,43.2686,-7.5406,47.57,100,100,2.93,ES,2021-05-26 01:45:10
159,Lasa,46.6166,10.7002,39.61,67,17,2.04,IT,2021-05-26 01:48:50
160,Trelew,-43.249,-65.3051,47.53,45,100,8.25,AR,2021-05-26 01:48:17
161,Starozhilovo,54.2254,39.916,50.31,76,99,0.38,RU,2021-05-26 01:49:36
162,Airai,-8.9266,125.4092,72.18,54,15,5.23,TL,2021-05-26 01:45:27
163,Hailar,49.2,119.7,51.13,47,92,7.02,CN,2021-05-26 01:49:37
164,Alice Springs,-23.7,133.8833,56.75,38,0,17.85,AU,2021-05-26 01:46:04
165,Huarmey,-10.0681,-78.1522,66.11,90,43,4.5,PE,2021-05-26 01:49:37
166,Maine-Soroa,13.2114,12.0241,85.75,9,76,6.87,NE,2021-05-26 01:49:38
167,Gat,31.61,34.7642,77.4,61,0,2.08,IL,2021-05-26 01:49:16
168,Chokurdakh,70.6333,147.9167,39.02,79,99,8.1,RU,2021-05-26 01:49:38
169,Iralaya,15.0,-83.2333,80.53,84,100,14.43,HN,2021-05-26 01:49:38
170,Anupgarh,29.1911,73.2086,93.85,20,0,4.79,IN,2021-05-26 01:49:39
171,Anshun,26.25,105.9333,66.54,90,100,7.7,CN,2021-05-26 01:47:34
172,Cayenne,4.9333,-52.3333,80.1,89,75,1.99,GF,2021-05-26 01:49:39
173,Nchelenge,-9.3451,28.734,58.84,71,0,6.22,ZM,2021-05-26 01:49:39
174,Walvis Bay,-22.9575,14.5053,56.35,82,0,8.19,NA,2021-05-26 01:49:40
175,Inuvik,68.3499,-133.7218,41.76,74,90,8.05,CA,2021-05-26 01:49:40
176,Berlevag,70.8578,29.0864,36.59,73,77,8.23,NO,2021-05-26 01:49:40
177,Nishihara,26.1842,127.7558,85.68,79,20,8.16,JP,2021-05-26 01:49:41
178,Lapy,52.9911,22.8842,50.49,98,100,7.23,PL,2021-05-26 01:49:41
179,Sitka,57.0531,-135.33,49.89,76,90,10.36,US,2021-05-26 01:49:41
180,Berberati,4.2612,15.7922,70.79,85,100,0.43,CF,2021-05-26 01:49:42
181,Hermanus,-34.4187,19.2345,48.79,69,100,5.7,ZA,2021-05-26 01:49:42
182,Upernavik,72.7868,-56.1549,31.57,88,63,14.03,GL,2021-05-26 01:49:43
183,Haines Junction,60.7522,-137.5108,55.35,44,100,3.44,CA,2021-05-26 01:49:43
184,Tiksi,71.6872,128.8694,35.91,88,8,2.82,RU,2021-05-26 01:49:43
185,Oktyabrskiy,54.4815,53.471,52.93,87,52,7.85,RU,2021-05-26 01:49:44
186,Oranjemund,-28.55,16.4333,57.22,98,31,8.86,NA,2021-05-26 01:49:44
187,Baie-Comeau,49.2168,-68.1489,62.6,94,75,1.83,CA,2021-05-26 01:49:44
188,Metro,-5.1131,105.3067,84.29,73,29,5.32,ID,2021-05-26 01:49:44
189,San Patricio,28.017,-97.5169,81.01,85,0,15.23,US,2021-05-26 01:49:45
190,Ampanihy,-24.7,44.75,61.99,69,6,2.04,MG,2021-05-26 01:49:45
191,Maniitsoq,65.4167,-52.9,31.68,73,12,14.9,GL,2021-05-26 01:49:45
192,Karatau,43.1667,70.4667,75.52,41,29,4.74,KZ,2021-05-26 01:49:46
193,Srednekolymsk,67.45,153.6833,57.65,41,73,22.53,RU,2021-05-26 01:49:31
194,Abu Samrah,35.3029,37.1841,68.54,43,0,5.93,SY,2021-05-26 01:49:46
195,Praia,14.9215,-23.5087,72.14,78,0,12.66,CV,2021-05-26 01:48:46
196,Kanniyakumari,8.0833,77.5667,77.5,94,100,22.57,IN,2021-05-26 01:49:01
197,Hami,42.8,93.45,80.91,12,0,7.85,CN,2021-05-26 01:49:05
198,Sechura,-5.5569,-80.8222,72.1,76,85,12.8,PE,2021-05-26 01:49:33
199,Cidreira,-30.1811,-50.2056,55.51,73,0,10.65,BR,2021-05-26 01:49:47
200,Ancud,-41.8697,-73.8203,55.42,94,100,13.76,CL,2021-05-26 01:49:47
201,Huadian,42.9633,126.7478,62.22,54,100,20.02,CN,2021-05-26 01:49:48
202,Khandyga,62.6667,135.6,53.4,70,100,5.01,RU,2021-05-26 01:49:48
203,Severo-Kurilsk,50.6789,156.125,37.9,98,100,14.38,RU,2021-05-26 01:49:48
204,Kodlipet,12.8,75.8833,67.78,93,100,7.74,IN,2021-05-26 01:49:49
205,Wanning,18.8003,110.3967,86.94,70,12,11.56,CN,2021-05-26 01:49:49
206,Bilibino,68.0546,166.4372,49.71,57,100,8.08,RU,2021-05-26 01:49:49
207,Las Vegas,36.175,-115.1372,92.08,7,1,16.11,US,2021-05-26 01:46:19
208,Kenai,60.5544,-151.2583,69.03,47,1,12.66,US,2021-05-26 01:49:50
209,Humaita,-7.5061,-63.0208,78.3,81,89,1.36,BR,2021-05-26 01:49:50
210,Husavik,66.0449,-17.3389,39.11,80,20,12.37,IS,2021-05-26 01:49:50
211,Zeya,53.75,127.2667,45.23,60,100,2.93,RU,2021-05-26 01:49:51
212,The Valley,18.217,-63.0578,80.82,73,25,17.43,AI,2021-05-26 01:49:51
213,Tasiilaq,65.6145,-37.6368,35.76,90,100,41.11,GL,2021-05-26 01:48:39
214,Ende,-8.8432,121.6623,84.97,65,25,3.22,ID,2021-05-26 01:49:52
215,Luderitz,-26.6481,15.1594,61.5,68,0,7.38,NA,2021-05-26 01:49:52
216,San Ignacio,17.1561,-89.0714,82.54,74,0,4.29,BZ,2021-05-26 01:49:52
217,Valle Hermoso,25.6667,-97.8333,82.54,76,100,15.1,MX,2021-05-26 01:49:52
218,Faya,18.3851,42.4509,68.11,40,20,4.34,SA,2021-05-26 01:49:53
219,Naica,27.85,-105.4833,83.61,10,81,2.77,MX,2021-05-26 01:49:53
220,Haguenau,48.8156,7.7905,53.69,86,100,7.9,FR,2021-05-26 01:49:53
221,Salzkotten,51.6717,8.6009,48.78,83,0,1.01,DE,2021-05-26 01:49:11
222,Candido Mendes,-1.4467,-45.7167,75.61,92,12,4.14,BR,2021-05-26 01:49:54
223,Fare,-16.7,-151.0167,80.78,70,70,9.06,PF,2021-05-26 01:49:49
224,Nola,40.922,14.5329,62.55,87,86,1.01,IT,2021-05-26 01:49:54
225,Belmonte,-15.8631,-38.8828,75.7,83,16,3.38,BR,2021-05-26 01:48:05
226,Vila Franca Do Campo,37.7167,-25.4333,64.81,88,100,10.27,PT,2021-05-26 01:47:26
227,Malatya,38.5,38.0,55.45,31,0,7.78,TR,2021-05-26 01:49:55
228,Along,28.1667,94.7667,76.62,89,100,1.77,IN,2021-05-26 01:49:55
229,Sal Rei,16.1833,-22.9167,70.36,84,0,18.41,CV,2021-05-26 01:49:55
230,Acajutla,13.5928,-89.8275,79.38,80,100,15.41,SV,2021-05-26 01:49:56
231,Ponta Do Sol,32.6667,-17.1,65.03,66,100,5.73,PT,2021-05-26 01:49:56
232,Lima,-12.0432,-77.0282,63.14,65,90,5.75,PE,2021-05-26 01:49:56
233,Lebu,-37.6167,-73.65,53.65,90,100,4.92,CL,2021-05-26 01:47:11
234,Timizart,36.8,4.2667,59.34,82,100,9.1,DZ,2021-05-26 01:49:57
235,Ust-Kulom,61.6864,53.6902,46.38,92,100,7.18,RU,2021-05-26 01:49:57
236,San Quintin,30.4833,-115.95,64.53,74,35,8.41,MX,2021-05-26 01:49:57
237,Leningradskiy,69.3833,178.4167,36.81,83,32,8.88,RU,2021-05-26 01:49:58
238,Asau,46.4333,26.4,59.76,100,4,4.88,RO,2021-05-26 01:49:58
239,Korla,41.7597,86.1469,80.58,14,0,9.13,CN,2021-05-26 01:49:58
240,Concordia,-31.393,-58.0209,51.87,94,0,4.0,AR,2021-05-26 01:49:59
241,Bengkulu,-3.8004,102.2655,83.17,71,98,2.77,ID,2021-05-26 01:49:59
242,Ostrovnoy,68.0531,39.5131,34.68,73,11,7.07,RU,2021-05-26 01:46:40
243,Coquimbo,-29.9533,-71.3436,55.13,87,0,5.06,CL,2021-05-26 01:49:59
244,Iqaluit,63.7506,-68.5145,28.13,86,90,15.01,CA,2021-05-26 01:50:00
245,Tubuala,9.5167,-79.0333,81.34,88,100,1.16,PA,2021-05-26 01:50:00
246,Sioux Lookout,50.1001,-91.917,64.47,45,75,12.66,CA,2021-05-26 01:50:01
247,Chuy,-33.6971,-53.4616,47.86,83,0,6.4,UY,2021-05-26 01:50:01
248,Avera,33.194,-82.5271,82.71,50,100,7.27,US,2021-05-26 01:50:01
249,Chabahar,25.2919,60.643,85.93,81,0,6.91,IR,2021-05-26 01:50:02
250,Tuktoyaktuk,69.4541,-133.0374,30.2,86,90,6.91,CA,2021-05-26 01:50:03
251,Kavaratti,10.5669,72.642,83.37,74,100,16.04,IN,2021-05-26 01:50:03
252,Henties Bay,-22.116,14.2845,62.96,81,0,6.96,NA,2021-05-26 01:50:04
253,Ruteng,-8.6136,120.4721,73.89,56,11,1.61,ID,2021-05-26 01:50:04
254,Yerbogachen,61.2767,108.0108,42.82,45,99,6.4,RU,2021-05-26 01:50:04
255,Baykit,61.67,96.37,33.89,67,100,9.73,RU,2021-05-26 01:50:05
256,Manaure,11.7751,-72.4445,81.14,73,82,17.9,CO,2021-05-26 01:50:05
257,Redlands,34.0556,-117.1825,86.56,28,85,7.0,US,2021-05-26 01:50:06
258,Sabang,5.8933,95.3214,83.28,77,100,10.56,ID,2021-05-26 01:50:06
259,Katobu,-4.9408,122.5276,84.25,70,60,6.38,ID,2021-05-26 01:50:06
260,Kismayo,-0.3582,42.5454,78.33,77,10,16.64,SO,2021-05-26 01:50:06
261,Brooks,50.5834,-111.8851,55.38,58,100,4.61,CA,2021-05-26 01:46:44
262,Moyale,3.5167,39.0584,63.14,83,69,4.68,KE,2021-05-26 01:48:13
263,Banda Aceh,5.5577,95.3222,83.84,73,95,5.5,ID,2021-05-26 01:50:07
264,Vasterhaninge,59.1167,18.1,50.45,93,100,15.97,SE,2021-05-26 01:50:07
265,Kavieng,-2.5744,150.7967,80.82,83,100,6.8,PG,2021-05-26 01:45:30
266,Kurilsk,45.2333,147.8833,41.16,92,100,13.33,RU,2021-05-26 01:50:08
267,Lincoln,40.8,-96.667,82.31,70,1,9.22,US,2021-05-26 01:48:02
268,Eyl,7.9803,49.8164,78.1,73,15,19.8,SO,2021-05-26 01:50:08
269,Santa Maria,-29.6842,-53.8069,45.7,100,0,3.85,BR,2021-05-26 01:46:10
270,Nailsea,51.4324,-2.7585,47.75,91,7,10.36,GB,2021-05-26 01:50:08
271,Bowen,-20.0167,148.2333,75.42,54,100,16.26,AU,2021-05-26 01:50:09
272,Brae,60.3964,-1.353,48.11,90,100,16.28,GB,2021-05-26 01:50:09
273,La Cruz,23.9167,-106.9,80.47,74,11,3.0,MX,2021-05-26 01:50:09
274,Halifax,44.6453,-63.5724,54.52,69,75,5.01,CA,2021-05-26 01:50:01
275,Poco Das Trincheiras,-9.3125,-37.2856,68.22,94,13,3.11,BR,2021-05-26 01:50:10
276,Hohhot,40.8106,111.6522,64.69,39,20,11.9,CN,2021-05-26 01:46:06
277,Ilulissat,69.2167,-51.1,33.82,64,100,0.0,GL,2021-05-26 01:47:16
278,Talnakh,69.4865,88.3972,25.39,91,45,13.27,RU,2021-05-26 01:50:11
279,San Ramon,37.7799,-121.978,75.63,61,1,8.01,US,2021-05-26 01:46:56
280,Gondar,12.6,37.4667,64.81,26,32,4.5,ET,2021-05-26 01:50:11
281,Hofn,64.2539,-15.2082,44.11,84,99,10.31,IS,2021-05-26 01:45:28
282,Talcahuano,-36.7167,-73.1167,53.28,94,75,3.44,CL,2021-05-26 01:50:12
283,Poya,-21.35,165.15,74.41,48,35,8.01,NC,2021-05-26 01:50:12
284,Mastic Beach,40.7668,-72.8521,62.98,79,1,3.0,US,2021-05-26 01:50:12
285,Bathsheba,13.2167,-59.5167,81.21,61,20,15.08,BB,2021-05-26 01:50:13
286,Pisco,-13.7,-76.2167,65.01,94,90,3.44,PE,2021-05-26 01:50:13
287,Ritchie,-29.038,24.6028,43.81,52,3,5.99,ZA,2021-05-26 01:50:13
288,Horadiz,39.4488,47.3353,66.97,75,92,5.03,AZ,2021-05-26 01:50:14
289,Malakal,9.5334,31.6605,82.49,57,37,4.97,SS,2021-05-26 01:50:14
290,Saint Anthony,45.0205,-93.218,80.22,24,1,13.4,US,2021-05-26 01:50:14
291,Vila Velha,-20.3297,-40.2925,73.35,82,90,3.0,BR,2021-05-26 01:49:56
292,Hun,29.1268,15.9477,75.54,37,0,10.49,LY,2021-05-26 01:50:15
293,Banka,24.8833,86.9167,79.57,83,100,19.04,IN,2021-05-26 01:50:15
294,Villafranca De Los Barros,38.5614,-6.3381,63.82,62,71,4.68,ES,2021-05-26 01:50:15
295,Lufilufi,-13.8745,-171.5986,87.58,76,23,14.52,WS,2021-05-26 01:50:16
296,Scottsbluff,41.8666,-103.6672,74.52,49,1,4.61,US,2021-05-26 01:50:16
297,Adrar,20.5022,-10.0711,84.49,18,100,14.12,MR,2021-05-26 01:50:16
298,Komsomolskiy,40.4272,71.7189,71.02,43,84,2.3,UZ,2021-05-26 01:50:17
299,Ocampo,21.65,-101.5,62.06,60,55,7.96,MX,2021-05-26 01:50:17
300,Lata,40.1629,-8.3327,60.71,81,99,2.64,PT,2021-05-26 01:49:28
301,Ahuimanu,21.4447,-157.8378,82.85,66,75,6.46,US,2021-05-26 01:50:17
302,Yeniseysk,58.4497,92.1703,45.95,38,75,10.45,RU,2021-05-26 01:50:18
303,Aklavik,68.2191,-135.0107,41.72,69,100,5.84,CA,2021-05-26 01:50:18
304,Tashtyp,52.7939,89.8983,64.17,83,100,7.11,RU,2021-05-26 01:50:18
305,Abha,18.2164,42.5053,67.82,55,0,6.13,SA,2021-05-26 01:50:19
306,Moerai,-22.4333,-151.3333,78.53,78,39,6.15,PF,2021-05-26 01:48:56
307,Baruun-Urt,46.6806,113.2792,50.2,53,87,8.25,MN,2021-05-26 01:50:19
308,Dire,12.2833,-10.9667,83.97,51,100,3.51,ML,2021-05-26 01:50:19
309,Andenes,69.3143,16.1194,46.08,70,8,26.46,NO,2021-05-26 01:50:20
310,Benguela,-12.5763,13.4055,75.06,60,2,4.65,AO,2021-05-26 01:50:20
311,Prince Rupert,54.3161,-130.3201,51.89,72,90,3.44,CA,2021-05-26 01:50:21
312,Rawlins,41.7911,-107.2387,64.33,17,90,16.13,US,2021-05-26 01:50:11
313,Linxia,35.6003,103.2064,64.04,33,57,2.15,CN,2021-05-26 01:50:21
314,Tomatlan,19.9333,-105.25,79.18,59,0,3.31,MX,2021-05-26 01:50:22
315,Victoria,22.2855,114.1577,89.33,83,19,1.01,HK,2021-05-26 01:50:22
316,Batemans Bay,-35.7167,150.1833,69.1,34,0,3.38,AU,2021-05-26 01:50:22
317,Innisfail,-17.5333,146.0333,72.45,79,96,10.71,AU,2021-05-26 01:50:22
318,Aasiaat,68.7098,-52.8699,26.49,74,12,6.58,GL,2021-05-26 01:50:23
319,Kasempa,-13.4584,25.8338,49.01,77,18,4.79,ZM,2021-05-26 01:50:23
320,Roald,62.5833,6.1333,53.17,87,87,20.71,NO,2021-05-26 01:50:23
321,Olinda,-8.0089,-34.8553,78.53,69,20,10.92,BR,2021-05-26 01:50:24
322,Provideniya,64.3833,-173.3,46.51,57,0,15.66,RU,2021-05-26 01:50:24
323,Urumqi,43.801,87.6005,77.95,21,0,3.91,CN,2021-05-26 01:48:12
324,Bethel,41.3712,-73.414,67.28,76,1,3.44,US,2021-05-26 01:47:27
325,Grand-Santi,4.25,-54.3833,74.39,99,100,2.28,GF,2021-05-26 01:50:25
326,Passa Quatro,-22.3903,-44.9667,56.75,57,47,0.56,BR,2021-05-26 01:50:25
327,Sri Aman,1.2376,111.4621,82.45,83,20,2.3,MY,2021-05-26 01:50:25
328,Fairbanks,64.8378,-147.7164,69.76,27,1,8.05,US,2021-05-26 01:49:56
329,Gazojak,41.1875,61.4036,83.3,23,2,3.44,TM,2021-05-26 01:50:26
330,Keita,14.7551,5.7749,82.42,14,44,1.21,NE,2021-05-26 01:50:26
331,Whitehorse,60.7161,-135.0538,56.01,53,75,11.01,CA,2021-05-26 01:46:54
332,San Carlos De Bariloche,-41.1456,-71.3082,49.44,69,75,10.87,AR,2021-05-26 01:50:27
333,Souillac,-20.5167,57.5167,70.36,94,40,7.9,MU,2021-05-26 01:50:27
334,Mount Pleasant,32.7941,-79.8626,76.08,72,1,1.01,US,2021-05-26 01:49:09
335,Hasaki,35.7333,140.8333,76.17,62,100,10.31,JP,2021-05-26 01:50:27
336,Banjar,-8.19,114.9675,84.06,66,28,2.3,ID,2021-05-26 01:50:28
337,Arroyo,41.6096,-4.7969,52.21,73,0,5.61,ES,2021-05-26 01:50:28
338,Turayf,31.6725,38.6637,68.25,40,0,9.22,SA,2021-05-26 01:50:28
339,Santa Rosa,14.3122,121.1114,92.08,65,41,3.2,PH,2021-05-26 01:50:28
340,Bathurst,-33.4166,149.5806,58.96,50,0,5.99,AU,2021-05-26 01:50:29
341,Leh,34.1667,77.5833,42.04,51,89,1.28,IN,2021-05-26 01:50:29
342,Gamba,-2.65,10.0,77.09,94,74,5.12,GA,2021-05-26 01:50:30
343,Sao Filipe,14.8961,-24.4956,73.58,75,0,10.16,CV,2021-05-26 01:50:30
344,Praia Da Vitoria,38.7333,-27.0667,64.76,94,75,13.56,PT,2021-05-26 01:50:30
345,Oron,4.8256,8.2343,78.49,90,100,2.91,NG,2021-05-26 01:50:30
346,Raga,8.4596,25.678,75.45,69,93,3.8,SS,2021-05-26 01:50:31
347,Fort Pierce,27.4467,-80.3256,78.06,73,20,4.0,US,2021-05-26 01:50:31
348,Sao Joao Da Barra,-21.6403,-41.0511,67.32,71,73,4.14,BR,2021-05-26 01:48:45
349,Itigi,-5.7,34.4833,57.06,87,100,6.85,TZ,2021-05-26 01:50:32
350,Krasnoselkup,65.7,82.4667,34.3,49,15,7.63,RU,2021-05-26 01:50:32
351,Shujalpur,23.4,76.7167,88.38,32,93,15.37,IN,2021-05-26 01:50:32
352,Russell,32.3502,-85.1999,83.8,73,1,4.79,US,2021-05-26 01:50:33
353,Akyab,20.15,92.9,81.48,80,100,20.78,MM,2021-05-26 01:50:33
354,Codrington,-38.2667,141.9667,54.93,61,85,18.07,AU,2021-05-26 01:47:00
355,Cap Malheureux,-19.9842,57.6142,70.47,81,5,5.01,MU,2021-05-26 01:50:33
356,Vaitape,-16.5167,-151.75,81.18,70,11,10.02,PF,2021-05-26 01:50:34
357,Barrow,71.2906,-156.7887,28.42,74,90,8.05,US,2021-05-26 01:48:58
358,Planeta Rica,8.4147,-75.5883,77.77,91,100,8.41,CO,2021-05-26 01:50:34
359,Salalah,17.0151,54.0924,78.04,81,47,3.76,OM,2021-05-26 01:50:34
360,San Cristobal,7.7669,-72.225,75.38,97,92,4.25,VE,2021-05-26 01:50:35
361,Matamoros,25.5333,-103.25,95.11,23,40,11.79,MX,2021-05-26 01:50:35
362,Milkovo,54.7167,158.6167,43.52,88,100,10.42,RU,2021-05-26 01:50:35
363,West Wendover,40.7391,-114.0733,63.61,45,90,16.11,US,2021-05-26 01:50:36
364,Jimma,7.6667,36.8333,59.54,95,75,0.76,ET,2021-05-26 01:50:36
365,Narsaq,60.9167,-46.05,32.9,73,64,2.44,GL,2021-05-26 01:50:36
366,Labuan,5.2767,115.2417,87.96,74,20,3.0,MY,2021-05-26 01:50:37
367,Arawa,-6.2132,155.5367,81.48,89,100,5.21,PG,2021-05-26 01:50:37
368,Marovoay,-16.1,46.6333,66.34,84,44,1.95,MG,2021-05-26 01:50:37
369,Svetlyy,54.675,20.1347,50.05,92,100,10.47,RU,2021-05-26 01:50:38
370,Bordighera,43.7806,7.6645,60.03,66,0,1.66,IT,2021-05-26 01:50:38
371,La Palma,33.8464,-118.0467,88.95,62,75,5.01,US,2021-05-26 01:50:38
372,Mildura,-34.2,142.15,57.07,71,90,10.36,AU,2021-05-26 01:47:25
373,Male,4.1748,73.5089,84.15,74,75,27.63,MV,2021-05-26 01:47:55
374,Pimenta Bueno,-11.6725,-61.1936,76.23,80,92,2.98,BR,2021-05-26 01:47:01
375,Adeje,28.1227,-16.726,66.52,62,75,3.0,ES,2021-05-26 01:50:39
376,Nha Trang,12.25,109.1833,84.2,60,51,1.92,VN,2021-05-26 01:46:12
377,Dunedin,-45.8742,170.5036,53.8,48,98,5.99,NZ,2021-05-26 01:50:39
378,Kaabong,3.4836,34.1492,62.35,86,37,8.14,UG,2021-05-26 01:50:40
379,Suntar,62.1444,117.6319,58.96,40,99,4.63,RU,2021-05-26 01:50:40
380,Rocha,-34.4833,-54.3333,44.76,76,5,5.23,UY,2021-05-26 01:50:41
381,Archidona,37.0965,-4.3887,59.94,81,7,4.07,ES,2021-05-26 01:50:41
382,Pochutla,15.7432,-96.4661,80.82,78,91,4.38,MX,2021-05-26 01:50:41
383,Bahia Blanca,-38.7196,-62.2724,49.06,46,100,10.25,AR,2021-05-26 01:47:30
384,Shimoda,34.6667,138.95,72.1,56,95,7.47,JP,2021-05-26 01:50:42
385,Tromso,69.6496,18.957,39.22,70,40,11.5,NO,2021-05-26 01:49:20
386,Katangli,51.7102,143.2326,40.77,72,100,10.8,RU,2021-05-26 01:50:42
387,Kutum,14.2,24.6667,76.8,32,51,6.46,SD,2021-05-26 01:50:43
388,Sampit,-2.5333,112.95,86.83,64,99,4.09,ID,2021-05-26 01:50:43
389,Jiuquan,39.7432,98.5174,69.3,14,3,3.27,CN,2021-05-26 01:50:36
390,Humboldt,40.6665,-123.9178,55.67,70,2,8.19,US,2021-05-26 01:50:43
391,Moron,-34.6534,-58.6198,53.98,81,2,2.04,AR,2021-05-26 01:50:44
392,Lichinga,-13.3128,35.2406,50.09,93,40,5.75,MZ,2021-05-26 01:50:44
393,Zastron,-30.3023,27.084,44.8,58,47,4.16,ZA,2021-05-26 01:50:45
394,Octeville,49.6261,-1.6435,49.93,64,90,13.51,FR,2021-05-26 01:50:45
395,Tilichiki,60.4667,166.1,42.71,62,99,14.16,RU,2021-05-26 01:49:37
396,Bontang,0.1333,117.5,82.06,76,100,1.07,ID,2021-05-26 01:50:45
397,Maumere,-8.6199,122.2111,84.02,66,14,2.01,ID,2021-05-26 01:50:46
398,Havre,49.5833,0.3333,51.35,93,90,16.71,FR,2021-05-26 01:50:46
399,Pazaric,43.7886,18.1608,53.85,62,75,3.56,BA,2021-05-26 01:50:46
400,Cascais,38.6979,-9.4215,63.52,65,100,11.01,PT,2021-05-26 01:50:47
401,Totness,5.8833,-56.3167,77.86,92,97,8.21,SR,2021-05-26 01:50:47
402,Tual,-5.6667,132.75,82.18,76,91,22.5,ID,2021-05-26 01:50:47
403,Nantucket,41.2835,-70.0995,60.91,89,1,16.11,US,2021-05-26 01:48:02
404,Dubovskoye,47.4092,42.7575,57.9,87,34,8.41,RU,2021-05-26 01:50:48
405,Rameswaram,9.2833,79.3,83.07,78,100,26.89,IN,2021-05-26 01:50:48
406,Bedford,52.1346,-0.4663,46.9,92,7,9.01,GB,2021-05-26 01:50:48
407,Ahipara,-35.1667,173.1667,59.5,66,81,9.42,NZ,2021-05-26 01:50:49
408,Sergeyevka,53.88,67.4158,78.6,36,56,9.93,KZ,2021-05-26 01:50:49
409,Katete,-0.7818,29.7544,59.81,86,100,3.58,UG,2021-05-26 01:50:49
410,Pokaran,26.9167,71.9167,84.6,63,0,16.08,IN,2021-05-26 01:50:50
411,Aguada De Pasajeros,22.385,-80.8508,80.74,78,73,11.68,CU,2021-05-26 01:50:50
412,Manuk Mangkaw,4.8,119.85,83.7,70,58,3.76,PH,2021-05-26 01:50:50
413,Nanortalik,60.1432,-45.2371,33.87,76,90,11.23,GL,2021-05-26 01:48:33
414,Ngama,11.7833,17.1667,88.23,11,96,8.59,TD,2021-05-26 01:50:51
415,Kudahuvadhoo,2.6708,72.8944,84.07,73,100,22.79,MV,2021-05-26 01:50:51
416,Devli,25.75,75.3833,88.32,40,70,14.18,IN,2021-05-26 01:50:51
417,Nizwa,22.9333,57.5333,84.9,25,0,1.05,OM,2021-05-26 01:48:00
418,Mount Gambier,-37.8333,140.7667,57.11,62,75,12.66,AU,2021-05-26 01:50:52
419,Kindu,-2.95,25.95,68.32,80,99,2.62,CD,2021-05-26 01:50:52
420,Harper,4.375,-7.7169,79.65,86,100,4.72,LR,2021-05-26 01:50:52
421,Hualmay,-11.0964,-77.6139,65.14,89,59,4.68,PE,2021-05-26 01:50:53
422,Vondrozo,-22.8167,47.2833,56.61,97,16,3.74,MG,2021-05-26 01:50:53
423,Laranjeiras Do Sul,-25.4078,-52.4161,51.3,51,77,2.1,BR,2021-05-26 01:50:53
424,Shahdadkot,27.8477,67.9055,97.23,13,0,3.15,PK,2021-05-26 01:50:54
425,Svetlogorsk,52.6333,29.7333,56.12,91,97,11.95,BY,2021-05-26 01:47:45
426,Lavrentiya,65.5833,-171.0,38.95,82,52,9.95,RU,2021-05-26 01:47:13
427,Dostpur,26.2833,82.4667,86.43,61,96,6.51,IN,2021-05-26 01:50:54
428,Shimizu,43.0061,142.8847,65.95,43,6,18.41,JP,2021-05-26 01:50:55
429,Nanning,22.8167,108.3167,79.25,75,70,5.06,CN,2021-05-26 01:50:55
430,Dondo,-19.6094,34.7431,59.16,96,2,4.36,MZ,2021-05-26 01:50:55
431,Anito,12.4497,125.2886,84.96,72,99,4.36,PH,2021-05-26 01:50:56
432,Gazanjyk,39.2446,55.5154,78.37,49,100,7.61,TM,2021-05-26 01:50:56
433,Newport,51.5877,-2.9984,48.45,88,4,6.87,GB,2021-05-26 01:50:56
434,College,64.8569,-147.8028,71.26,27,40,1.01,US,2021-05-26 01:50:56
435,Alta Gracia,-31.6529,-64.4283,51.89,55,0,3.85,AR,2021-05-26 01:50:57
436,Kingisepp,59.3733,28.6134,47.14,79,98,9.19,RU,2021-05-26 01:50:57
437,Ryotsu,38.0833,138.4333,62.56,67,69,9.66,JP,2021-05-26 01:50:58
438,Palmer,42.1584,-72.3287,68.67,70,75,3.0,US,2021-05-26 01:49:26
439,Fortuna,40.5982,-124.1573,64.47,68,40,7.0,US,2021-05-26 01:46:03
440,Tamboril,19.4854,-70.611,76.87,94,40,5.75,DO,2021-05-26 01:50:58
441,Vanimo,-2.6741,141.3028,83.57,78,26,4.41,PG,2021-05-26 01:47:20
442,Grindavik,63.8424,-22.4338,46.87,76,75,29.86,IS,2021-05-26 01:50:59
443,Chengde,40.9725,117.9361,64.99,51,95,16.15,CN,2021-05-26 01:50:59
444,Pangnirtung,66.1451,-65.7125,18.07,94,97,5.53,CA,2021-05-26 01:50:59
445,Mezinovskiy,55.5042,40.3593,49.71,75,98,0.63,RU,2021-05-26 01:51:00
446,Manavalakurichi,8.1333,77.3,78.89,92,100,22.15,IN,2021-05-26 01:51:00
447,Pemangkat,1.1667,108.9667,84.04,72,99,2.8,ID,2021-05-26 01:51:00
448,Bollnas,61.3482,16.3946,45.39,96,100,8.32,SE,2021-05-26 01:51:00
449,Laizhou,37.1717,119.9214,79.54,42,28,25.48,CN,2021-05-26 01:51:01
450,Flinders,-34.5833,150.8552,68.18,50,0,7.0,AU,2021-05-26 01:51:01
451,Coahuayana,18.7333,-103.6833,76.37,75,100,3.09,MX,2021-05-26 01:51:01
452,Biu,10.6129,12.1946,80.83,37,74,4.63,NG,2021-05-26 01:51:02
453,Gloucester,51.8657,-2.2431,45.68,94,7,4.29,GB,2021-05-26 01:51:02
454,Marrakesh,31.6315,-8.0083,64.47,68,0,5.75,MA,2021-05-26 01:46:08
455,Kununurra,-15.7667,128.7333,89.58,43,42,6.91,AU,2021-05-26 01:51:03
456,Canico,32.6333,-16.85,65.03,76,40,1.99,PT,2021-05-26 01:51:03
457,Boralday,43.3578,76.8594,71.46,46,20,4.56,KZ,2021-05-26 01:51:03
458,Linqu,36.5156,118.5397,79.66,41,95,28.68,CN,2021-05-26 01:51:04
459,Kupang,-10.1667,123.5833,86.58,66,40,18.41,ID,2021-05-26 01:50:09
460,Louis Trichardt,-23.0439,29.9032,52.09,70,45,3.44,ZA,2021-05-26 01:51:04
461,Lafiagi,8.8667,5.4167,77.63,73,50,4.34,NG,2021-05-26 01:51:05
462,Sorland,67.667,12.6934,43.21,75,0,22.15,NO,2021-05-26 01:51:05
463,Ponta Delgada,37.7333,-25.6667,65.12,94,20,11.5,PT,2021-05-26 01:51:05
464,Ravar,31.2656,56.8055,81.43,19,79,4.36,IR,2021-05-26 01:51:06
465,Yar-Sale,66.8333,70.8333,38.35,63,97,7.38,RU,2021-05-26 01:51:06
466,Comodoro Rivadavia,-45.8667,-67.5,39.06,65,0,2.3,AR,2021-05-26 01:48:36
467,Ilhabela,-23.7781,-45.3581,63.32,79,16,5.41,BR,2021-05-26 01:51:07
468,Dvubratskiy,45.2389,39.805,55.51,93,6,1.05,RU,2021-05-26 01:51:07
469,San Luis,-33.295,-66.3356,54.55,38,74,8.81,AR,2021-05-26 01:51:07
470,Dargaville,-35.9333,173.8833,58.12,73,99,8.21,NZ,2021-05-26 01:51:08
471,Saint-Georges,12.0564,-61.7485,80.28,69,75,11.5,GD,2021-05-26 01:51:08
472,Necochea,-38.5473,-58.7368,45.84,55,63,10.16,AR,2021-05-26 01:48:45
473,Cheyenne,41.14,-104.8203,66.52,32,20,8.05,US,2021-05-26 01:48:28
474,Diego De Almagro,-26.3667,-70.05,63.66,20,93,2.04,CL,2021-05-26 01:48:20
475,Qujing,25.4833,103.7833,73.0,60,79,13.4,CN,2021-05-26 01:51:09
476,Castelo Do Piaui,-5.3222,-41.5525,73.18,69,8,5.39,BR,2021-05-26 01:51:09
477,Weligama,5.9667,80.4167,80.55,85,100,17.69,LK,2021-05-26 01:51:09
478,Kahului,20.8947,-156.47,86.02,73,40,18.41,US,2021-05-26 01:51:10
479,Itarema,-2.9248,-39.9167,76.77,82,87,9.95,BR,2021-05-26 01:49:34
480,Carmen,18.6333,-91.8333,82.74,77,80,16.04,MX,2021-05-26 01:49:11
481,Ribeira Brava,32.65,-17.0667,65.03,68,100,5.01,PT,2021-05-26 01:51:10
482,Barra Do Garcas,-15.89,-52.2567,72.95,67,72,2.59,BR,2021-05-26 01:51:11
483,Bireun,5.203,96.7009,83.52,69,71,1.77,ID,2021-05-26 01:51:11
484,Tura,25.5198,90.2201,74.21,97,100,3.31,IN,2021-05-26 01:48:57
485,Gbadolite,4.2833,21.0167,71.2,90,19,2.24,CD,2021-05-26 01:51:11
486,Tucurui,-3.7661,-49.6725,78.12,82,85,1.36,BR,2021-05-26 01:48:35
487,Opuwo,-18.0607,13.84,58.23,45,0,8.19,NA,2021-05-26 01:47:54
488,Galesong,-5.3166,119.3661,82.42,66,97,2.04,ID,2021-05-26 01:50:20
489,Bubaque,11.2833,-15.8333,78.66,74,97,4.88,GW,2021-05-26 01:51:12
490,Ola,59.5833,151.2833,40.24,76,100,4.59,RU,2021-05-26 01:51:12
491,Miquelon,47.0975,-56.3814,42.58,90,100,29.35,PM,2021-05-26 01:51:13
492,Amboasary,-25.0333,46.3833,64.24,87,2,2.82,MG,2021-05-26 01:51:13
493,Tecoanapa,16.5167,-98.75,83.86,60,99,5.68,MX,2021-05-26 01:51:13
494,Toktogul,41.8708,72.9402,65.77,56,69,0.34,KG,2021-05-26 01:51:14
495,Stryn,61.9045,6.7226,53.15,78,100,5.66,NO,2021-05-26 01:51:14
496,Bantou,26.2151,117.4893,85.91,68,68,5.32,CN,2021-05-26 01:51:14
497,Byron Bay,-28.65,153.6167,75.06,55,0,4.79,AU,2021-05-26 01:51:15
498,Rancho Palos Verdes,33.7445,-118.387,85.98,76,20,1.99,US,2021-05-26 01:46:47
499,Yeppoon,-23.1333,150.7333,78.58,65,3,6.58,AU,2021-05-26 01:51:15
500,Pundaguitan,6.3711,126.1689,82.45,74,100,4.61,PH,2021-05-26 01:48:33
501,Barth,54.3635,12.7249,49.98,91,100,18.59,DE,2021-05-26 01:51:15
502,Selikhino,50.3672,137.4996,37.36,99,100,7.78,RU,2021-05-26 01:51:16
503,Adwa,14.1646,38.8955,67.77,42,21,1.86,ET,2021-05-26 01:51:16
504,Bardiyah,31.7561,25.0865,71.28,53,0,8.48,LY,2021-05-26 01:51:16
505,Sicuani,-14.2694,-71.2261,42.24,87,75,4.47,PE,2021-05-26 01:51:17
506,Gravelbourg,49.8834,-106.5512,44.87,80,100,8.59,CA,2021-05-26 01:51:17
507,Fort Nelson,58.8053,-122.7002,51.39,25,75,2.3,CA,2021-05-26 01:51:17
508,Winnemucca,40.973,-117.7357,71.65,15,1,19.98,US,2021-05-26 01:51:18
509,Bambanglipuro,-7.95,110.2833,83.17,72,27,5.21,ID,2021-05-26 01:51:18
510,Lompoc,34.6391,-120.4579,79.38,73,1,17.27,US,2021-05-26 01:51:18
511,Kyren,51.6828,102.1408,54.21,63,100,1.43,RU,2021-05-26 01:51:19
512,Fomboni,-12.28,43.7425,78.8,67,6,15.5,KM,2021-05-26 01:51:19
513,Nioro,13.35,-15.75,76.17,64,45,6.87,GM,2021-05-26 01:51:19
514,Daru,-9.0763,143.2092,81.19,67,15,15.9,PG,2021-05-26 01:51:20
515,Saint-Pierre,-21.3393,55.4781,73.04,71,0,6.91,RE,2021-05-26 01:51:20
516,Klaksvik,62.2266,-6.589,47.32,89,72,17.67,FO,2021-05-26 01:51:20
517,Kungurtug,50.5994,97.5228,44.87,93,100,4.65,RU,2021-05-26 01:51:21
518,Severnyy-Kospashskiy,59.0925,57.8008,50.61,93,98,5.35,RU,2021-05-26 01:51:21
519,Yulara,-25.2406,130.9889,53.44,50,100,14.97,AU,2021-05-26 01:51:22
520,Celestun,20.8667,-90.4,82.72,71,84,13.69,MX,2021-05-26 01:51:22
521,Port Shepstone,-30.7414,30.455,66.69,42,100,6.11,ZA,2021-05-26 01:51:22
522,Pauini,-7.7136,-66.9764,77.52,80,100,1.63,BR,2021-05-26 01:51:22
523,Knysna,-34.0363,23.0471,57.58,84,97,4.38,ZA,2021-05-26 01:51:23
524,Marawi,7.9986,124.2928,77.65,79,85,3.83,PH,2021-05-26 01:51:23
525,Burnie,-41.0667,145.9167,51.96,73,93,18.5,AU,2021-05-26 01:50:41
526,Sao Miguel Do Araguaia,-13.275,-50.1628,77.88,47,44,3.31,BR,2021-05-26 01:51:24
527,Panaba,21.2833,-88.2667,79.38,73,71,13.47,MX,2021-05-26 01:51:24
528,Poso,-1.3959,120.7524,80.29,81,100,4.05,ID,2021-05-26 01:51:24
529,Camacha,33.0833,-16.3333,61.56,63,75,13.8,PT,2021-05-26 01:48:35
530,Murdochville,48.9583,-65.5006,47.28,98,100,0.74,CA,2021-05-26 01:51:25
531,Sakaraha,-22.9,44.5333,58.77,71,0,2.37,MG,2021-05-26 01:51:25
532,Soyo,-6.1349,12.3689,77.31,90,100,6.98,AO,2021-05-26 01:46:36
533,Katsuura,35.1333,140.3,76.23,74,100,15.95,JP,2021-05-26 01:47:21
534,Aras,42.5617,-2.356,42.31,81,0,3.27,ES,2021-05-26 01:51:26
535,Urusha,54.05,122.9,51.13,59,100,1.36,RU,2021-05-26 01:51:26
536,Ambilobe,-13.2,49.05,66.34,90,5,3.04,MG,2021-05-26 01:51:26
537,Marsala,37.7966,12.4352,63.55,94,0,10.22,IT,2021-05-26 01:51:27
538,Trzebiatow,54.0615,15.2648,48.47,92,95,14.88,PL,2021-05-26 01:51:27
539,Kjollefjord,70.9457,27.3465,36.43,74,93,5.95,NO,2021-05-26 01:51:27
540,Porto Novo,6.4965,2.6036,82.22,87,100,8.99,BJ,2021-05-26 01:51:28
541,Bela,25.9333,81.9833,86.67,59,42,6.64,IN,2021-05-26 01:51:28
542,North Miami,25.8901,-80.1867,78.04,68,1,5.01,US,2021-05-26 01:51:28
